[{"Program":"Adult Day Care","city":"Omaha (Nebraska)","name":"SarahCare of Omaha","links":"https:\/\/www.communityresourcefinder.org\/ProviderProfileView\/Index?providerId=3CB8A93D16&profileDefinitionId=1","contacts":"(402) 496-3379","distance":"Distance: 10.36 miles","address":"3615 N 129th St   Omaha NE 68164-5211","general information":"General Information- Languages spoken English","latitude":41.290973,"longitude":-96.114403,"services":null},{"Program":"Adult Day Care","city":"Omaha (Nebraska)","name":"EDGEWOOD OMAHA SENIOR LIVING, LLC","links":"https:\/\/www.communityresourcefinder.org\/ProviderProfileView\/Index?providerId=A756D33403&profileDefinitionId=1","contacts":"(402) 333-5749","distance":"Distance: 13.65 miles","address":"17620 Poppleton Ave   Omaha NE 68130-4614","general information":"General Information- Languages spoken English","latitude":41.247454,"longitude":-96.190844,"services":null},{"Program":"Adult Day Care","city":"Omaha (Nebraska)","name":"Immanuel Pathways","links":"https:\/\/www.communityresourcefinder.org\/ProviderProfileView\/Index?providerId=7360D9AEB9&profileDefinitionId=1","contacts":"(402) 991-0330","distance":"Distance: 6.63 miles","address":"5755 Sorensen Pkwy   Omaha NE 68152-2370","general information":null,"latitude":41.316361,"longitude":-96.001077,"services":null},{"Program":"Adult Day Care","city":"Omaha (Nebraska)","name":"Hillcrest Mable Rose","links":"https:\/\/www.communityresourcefinder.org\/ProviderProfileView\/Index?providerId=EF6B31F2B4&profileDefinitionId=1","contacts":"(402) 291-9777","distance":"Distance: 7.28 miles","address":"4609 Hilltop St  Papillion NE 68133-3323","general information":null,"latitude":41.14109,"longitude":-95.984,"services":null},{"Program":"Adult Day Care","city":"Omaha (Nebraska)","name":"Countryhouse Residence","links":"https:\/\/www.communityresourcefinder.org\/ProviderProfileView\/Index?providerId=45BE0FE3C5&profileDefinitionId=1","contacts":"(402) 964-2060","distance":"Distance: 12.10 miles","address":"5030 S 155th St   Omaha NE 68137-5002","general information":null,"latitude":41.207763,"longitude":-96.157488,"services":"Memory Care- Memory care No"},{"Program":"Adult Day Care","city":"Omaha (Nebraska)","name":"PRESTIGE CARE CENTER OF PLATTSMOUTH","links":"https:\/\/www.communityresourcefinder.org\/ProviderProfileView\/Index?providerId=2765809874&profileDefinitionId=1","contacts":"(402) 296-2800","distance":"Distance: 16.17 miles","address":"602 S 18th St   Plattsmouth NE 68048-2056","general information":null,"latitude":41.004661,"longitude":-95.902287,"services":null},{"Program":"Adult Day Care","city":"Omaha (Nebraska)","name":"Community Alliance","links":"https:\/\/www.communityresourcefinder.org\/ProviderProfileView\/Index?providerId=5744BE2488&profileDefinitionId=1","contacts":"(402) 341-5128","distance":"Distance: 2.53 miles","address":"4001 Leavenworth St  Omaha NE 68105-1026","general information":null,"latitude":41.252089,"longitude":-95.973865,"services":null},{"Program":"Adult Day Care","city":"Omaha (Nebraska)","name":"Omaha O.I.C Adult Day Care","links":"https:\/\/www.communityresourcefinder.org\/ProviderProfileView\/Index?providerId=D900D6D6DC&profileDefinitionId=1","contacts":"(402) 457-4222","distance":"Distance: 3.33 miles","address":"2724 N 24th St  Omaha NE 68110-2107","general information":null,"latitude":41.28443,"longitude":-95.94762,"services":null},{"Program":"Adult Day Care","city":"Omaha (Nebraska)","name":"Community Alliance Rehabilitation Services Jones Street","links":"https:\/\/www.communityresourcefinder.org\/ProviderProfileView\/Index?providerId=9D24E9B5B5&profileDefinitionId=1","contacts":"(402) 341-5128","distance":"Distance: 4.98 miles","address":"7117 Jones Cir  Omaha NE 68106-1000","general information":null,"latitude":41.25478,"longitude":-96.022137,"services":null},{"Program":"Adult Day Care","city":"Omaha (Nebraska)","name":"Royale Oaks\/House of Hope Alzheimers Care","links":"https:\/\/www.communityresourcefinder.org\/ProviderProfileView\/Index?providerId=02C0AF6D06&profileDefinitionId=1","contacts":"(402) 557-6860","distance":"Distance: 5.60 miles","address":"4801 N 52nd St  Omaha NE 68104-2229","general information":null,"latitude":41.302742,"longitude":-95.993807,"services":null},{"Program":"Adult Day Care","city":"Omaha (Nebraska)","name":"Friendship Program, Inc","links":"https:\/\/www.communityresourcefinder.org\/ProviderProfileView\/Index?providerId=360ACC48A0&profileDefinitionId=1","contacts":"(402) 393-6911","distance":"Distance: 6.01 miles","address":"7315 Maple St  Omaha NE 68134-6821","general information":null,"latitude":41.284502,"longitude":-96.026398,"services":null},{"Program":"Adult Day Care","city":"Omaha (Nebraska)","name":"Franciscan Adult Day Center\/ Franciscan Centre","links":"https:\/\/www.communityresourcefinder.org\/ProviderProfileView\/Index?providerId=B1CCB6F615&profileDefinitionId=1","contacts":"(402) 393-2277","distance":"Distance: 6.83 miles","address":"900 N 90th St  Omaha NE 68114-8800","general information":null,"latitude":41.2686,"longitude":-96.053864,"services":null}]